City_ID,City,Cloudiness,Country,Date,Humidity,Lat,Lng,Max Temp,Wind Speed
0,georgetown,20,GY,1554292800,74,6.8,-58.16,82.4,11.41
1,husavik,80,CA,1554294626,84,50.56,-96.99,21.0,5.01
2,iqaluit,90,CA,1554294122,77,63.75,-68.52,-2.01,4.7
3,rikitea,92,PF,1554294677,100,-23.12,-134.97,74.39,21.18
4,basco,1,US,1554294661,86,40.33,-91.2,37.4,3.36
5,pandan,0,PH,1554294677,93,11.72,122.09,82.13,14.03
6,ko samui,20,TH,1554292800,70,9.54,99.94,86.0,11.41
7,karratha,0,AU,1554294657,41,-20.74,116.85,85.91,8.99
8,ushuaia,75,AR,1554292800,65,-54.81,-68.31,41.0,12.75
9,avarua,48,CK,1554292800,78,-21.21,-159.78,77.0,5.82
10,jamestown,24,AU,1554294679,55,-33.21,138.6,63.5,7.87
11,vestmannaeyjar,40,IS,1554292800,75,63.44,-20.27,41.0,29.97
12,gushikawa,90,JP,1554294147,77,26.35,127.87,64.4,8.05
13,mount gambier,90,AU,1554289200,82,-37.83,140.78,55.4,10.29
14,bredasdorp,20,ZA,1554294604,53,-34.53,20.04,77.0,8.05
15,vanavara,80,RU,1554294680,71,60.35,102.28,31.01,12.35
16,nicoya,0,CR,1554294658,58,10.15,-85.45,82.4,25.28
17,hithadhoo,100,MV,1554294680,100,-0.6,73.08,84.74,6.31
18,mataura,0,NZ,1554294608,90,-46.19,168.86,45.0,2.73
19,barrow,0,AR,1554294681,80,-38.31,-60.23,56.39,8.66
20,yellowknife,20,CA,1554294586,76,62.45,-114.38,-7.01,8.05
21,devonport,0,AU,1554294650,72,-41.18,146.36,51.01,1.99
22,boyolangu,92,ID,1554294682,92,-8.09,111.9,74.57,2.62
23,atuona,48,PF,1554294682,100,-9.8,-139.03,81.59,14.03
24,mar del plata,32,AR,1554294682,53,-46.43,-67.52,57.11,23.53
25,albany,75,US,1554294575,69,42.65,-73.75,37.0,0.72
26,ribeira grande,75,PT,1554292800,67,38.52,-28.7,59.0,11.41
27,ponta delgada,20,PT,1554294623,62,37.73,-25.67,59.0,18.34
28,east london,0,ZA,1554292800,69,-33.02,27.91,75.2,18.34
29,provideniya,8,RU,1554294683,100,64.42,-173.23,22.82,19.51
30,cape town,0,ZA,1554294645,24,-33.93,18.42,82.0,9.17
31,clyde river,90,CA,1554292920,84,70.47,-68.59,5.0,32.21
32,ca mau,0,VN,1554294521,75,9.18,105.15,84.29,8.66
33,bluff,56,AU,1554294684,50,-23.58,149.07,78.71,16.15
34,puerto ayora,20,EC,1554292800,88,-0.74,-90.35,77.0,5.82
35,busselton,88,AU,1554294607,44,-33.64,115.35,70.0,13.8
36,castro,75,CL,1554292800,100,-42.48,-73.76,46.4,4.7
37,deputatskiy,0,RU,1554294685,56,69.3,139.9,-6.88,2.62
38,kataysk,92,RU,1554294685,77,56.29,62.58,37.67,19.73
39,hovd,0,NO,1554294665,34,63.83,10.7,50.0,12.75
40,alekseyevsk,88,RU,1554294685,69,57.84,108.35,31.37,10.89
41,carutapera,44,BR,1554294686,95,-1.2,-46.02,81.23,2.84
42,cidreira,0,BR,1554294686,79,-30.17,-50.22,78.17,7.87
43,turayf,40,SA,1554292800,32,31.68,38.65,68.0,11.41
44,mountain home,90,US,1554294143,100,43.13,-115.69,45.0,5.82
45,saskylakh,68,RU,1554294686,85,71.97,114.09,24.35,3.62
46,kapaa,75,US,1554294648,68,22.08,-159.32,71.6,11.41
47,luanda,40,AO,1554292800,66,-8.83,13.24,89.6,5.82
48,port hedland,0,AU,1554292800,88,-20.31,118.58,80.6,5.82
49,nizhniy tsasuchey,64,RU,1554294687,61,50.52,115.13,44.87,20.18
50,great yarmouth,75,GB,1554294664,86,52.61,1.73,46.0,3.36
51,verkh-usugli,8,RU,1554294688,58,52.7,115.17,33.44,11.12
52,bethel,1,US,1554292560,92,60.79,-161.76,33.8,8.05
53,khatanga,68,RU,1554294689,83,71.98,102.47,17.33,8.88
54,shelburne,75,CA,1554294662,65,44.08,-80.2,41.0,12.75
55,cambuci,0,BR,1554292800,78,-21.57,-41.91,77.0,2.17
56,vanimo,92,PG,1554294689,97,-2.67,141.3,83.84,15.82
57,raudeberg,0,NO,1554294607,40,61.99,5.14,51.8,4.7
58,punta arenas,40,CL,1554294147,80,-53.16,-70.91,42.8,25.28
59,kurikka,0,FI,1554294631,29,62.62,22.4,52.0,12.75
60,talnakh,88,RU,1554294690,90,69.49,88.39,21.02,6.87
61,kisangani,75,CD,1554292800,56,0.52,25.21,93.2,6.93
62,qaanaaq,24,GL,1554294690,79,77.48,-69.36,-5.53,8.43
63,port alfred,68,ZA,1554294687,85,-33.59,26.89,71.01,8.01
64,fayaoue,88,NC,1554294691,98,-20.65,166.53,81.23,13.24
65,genhe,44,CN,1554294691,74,50.78,121.52,18.77,1.95
66,lebu,44,ET,1554294691,46,8.96,38.73,72.59,0.27
67,hobart,20,AU,1554294679,61,-42.88,147.33,46.4,3.4
68,hermanus,32,ZA,1554294645,48,-34.42,19.24,82.0,5.01
69,beringovskiy,92,RU,1554294692,94,63.05,179.32,28.49,18.72
70,hami,0,CN,1554294692,30,42.84,93.51,67.73,5.64
71,druzhba,0,UA,1554294693,68,49.36,25.65,47.03,16.49
72,torbay,75,CA,1554294666,74,47.66,-52.73,41.0,2.24
73,sabha,0,LY,1554294693,63,27.03,14.43,74.21,5.97
74,ahipara,100,NZ,1554294693,100,-35.17,173.16,60.89,8.66
75,thompson,75,CA,1554292800,77,55.74,-97.86,1.4,5.82
76,nerchinskiy zavod,80,RU,1554294694,58,51.31,119.61,29.84,2.39
77,dingle,8,PH,1554294694,56,11.0,122.67,81.77,11.68
78,narsaq,75,GL,1554292200,73,60.91,-46.05,26.6,13.87
79,naze,75,NG,1554289200,70,5.43,7.07,89.6,5.82
80,belokurikha,68,RU,1554294695,66,52.0,84.99,45.95,8.88
81,whitewater,1,US,1554294588,86,42.83,-88.73,35.6,4.7
82,nikolskoye,0,RU,1554294636,20,59.7,30.79,53.6,8.95
83,maxixe,75,MZ,1554292800,69,-23.86,35.35,82.4,6.93
84,albolote,20,ES,1554294676,42,37.23,-3.66,70.0,8.05
85,egvekinot,0,RU,1554294696,55,66.32,-179.17,5.72,2.17
86,katangli,32,RU,1554294697,87,51.71,143.23,26.06,17.27
87,mehamn,90,NO,1554292200,92,71.03,27.85,35.6,2.24
88,christchurch,24,NZ,1554294499,87,-43.53,172.64,54.0,8.05
89,kushima,20,JP,1554294146,71,31.5,131.29,51.8,8.05
90,pacific grove,90,US,1554294502,87,36.62,-121.92,54.0,6.93
91,gandiaye,0,SN,1554289200,50,14.24,-16.27,77.0,6.93
92,ilhabela,32,BR,1554294488,99,-23.78,-45.36,74.93,3.62
93,sandusky,1,US,1554294567,80,41.45,-82.71,43.0,13.87
94,batemans bay,92,AU,1554294656,87,-35.71,150.18,68.0,3.74
95,gotsu,0,JP,1554294699,87,35.01,132.22,39.83,4.85
96,berlevag,75,NO,1554292200,69,70.86,29.09,35.6,1.12
97,sivas,75,TR,1554292200,39,39.75,37.01,46.4,5.82
98,freeport,90,BS,1554292800,83,26.54,-78.7,71.6,14.99
99,hilo,90,US,1554294661,78,19.71,-155.08,73.4,5.82
100,leningradskiy,48,RU,1554294547,95,69.38,178.42,11.75,16.71
101,upernavik,32,GL,1554294700,85,72.79,-56.15,31.19,13.8
102,antalaha,32,MG,1554294700,100,-14.9,50.28,80.78,5.86
103,tamandare,32,BR,1554294700,94,-8.28,-70.75,76.1,3.74
104,yerbogachen,92,RU,1554294701,82,61.28,108.01,31.73,1.95
105,pisco,88,PE,1554292800,30,-13.71,-76.2,71.6,2.39
106,okhansk,0,RU,1554292800,30,57.72,55.39,44.6,13.42
107,san francisco,90,US,1554294539,87,37.78,-122.42,55.0,4.7
108,sao filipe,64,CV,1554294702,96,14.9,-24.5,70.97,16.26
109,port macquarie,40,AU,1554294605,87,-31.43,152.91,64.0,6.2
110,ponta do sol,0,BR,1554294703,71,-20.63,-46.0,75.02,4.41
111,kovdor,48,RU,1554294703,67,67.56,30.47,38.93,6.76
112,karcsa,36,HU,1554294661,25,48.31,21.79,62.6,8.95
113,pingliang,8,CN,1554294539,48,35.54,106.68,46.0,7.87
114,chokurdakh,0,RU,1554294704,52,70.62,147.9,4.73,6.64
115,kruisfontein,56,ZA,1554294704,60,-34.0,24.73,70.34,5.41
116,lavrentiya,0,RU,1554294704,82,65.58,-170.99,16.43,11.01
117,praia da vitoria,75,PT,1554293806,77,38.73,-27.07,60.01,19.73
118,ilulissat,40,GL,1554292200,63,69.22,-51.1,26.6,29.97
119,victoria,75,BN,1554291000,83,5.28,115.24,84.2,3.36
120,okhotsk,0,RU,1554294706,82,59.36,143.24,25.7,2.95
121,coihaique,75,CL,1554292800,66,-45.58,-72.07,53.6,3.36
122,saint-philippe,1,CA,1554294695,51,45.36,-73.48,39.99,14.99
123,hambantota,20,LK,1554289800,59,6.12,81.12,89.6,8.05
124,abu dhabi,32,AE,1554292800,43,24.47,54.37,98.6,11.41
125,kaitangata,0,NZ,1554294639,88,-46.28,169.85,44.01,7.0
126,new norfolk,20,AU,1554294679,50,-42.78,147.06,51.8,5.82
127,tezu,48,IN,1554294707,77,27.93,96.16,56.93,1.5
128,vardo,1,US,1554294508,74,39.62,-77.74,39.99,8.05
129,dutlwe,0,BW,1554294707,40,-23.98,23.93,86.0,15.03
130,dikson,56,RU,1554294707,99,73.51,80.55,23.81,19.62
131,mao,40,DO,1554294665,94,19.55,-71.08,81.0,5.97
132,sobolevo,0,RU,1554294708,66,54.43,31.9,49.64,6.42
133,vila do maio,40,CV,1554292800,47,15.13,-23.22,80.6,20.8
134,vaini,40,IN,1554292800,15,15.34,74.49,96.8,3.36
135,carnarvon,56,ZA,1554294708,29,-30.97,22.13,80.42,16.49
136,bonavista,20,CA,1554294608,71,48.65,-53.11,37.0,5.99
137,dunedin,0,NZ,1554294635,85,-45.87,170.5,48.99,1.01
138,gat,20,SN,1554292800,50,14.69,-16.54,77.0,19.46
139,shemgang,68,BT,1554294710,88,27.22,90.66,59.27,0.72
140,jeremie,24,HT,1554294710,100,18.65,-74.12,77.18,8.99
141,bam,48,IR,1554294710,22,29.11,58.36,80.42,6.42
142,yining,64,CN,1554294710,94,29.04,114.56,51.53,2.17
143,matagami,0,NG,1554294711,23,9.67,8.4,97.43,4.18
144,itupiranga,40,BR,1554292800,94,-5.13,-49.33,82.4,4.7
145,wilmington,1,US,1554294454,80,39.75,-75.55,43.0,5.82
146,artesia,1,US,1554294053,28,32.84,-104.4,55.4,16.11
147,saint george,75,GR,1554294199,48,39.45,22.34,64.0,4.7
148,fortuna,20,ES,1554294678,31,38.18,-1.13,73.4,3.36
149,huarmey,68,PE,1554294712,91,-10.07,-78.15,66.2,3.06
150,viedma,0,AR,1554294713,60,-40.81,-62.99,57.11,14.25
151,esperance,40,TT,1554294686,83,10.24,-61.45,82.0,12.75
152,faanui,24,PF,1554294713,100,-16.48,-151.75,84.29,8.77
153,pangnirtung,90,CA,1554292800,84,66.15,-65.72,3.2,3.36
154,chicama,75,PE,1554292800,93,-7.84,-79.15,66.2,3.36
155,katsuura,20,JP,1554293052,46,33.93,134.5,50.0,6.93
156,grindavik,75,IS,1554292800,75,63.84,-22.43,42.8,28.86
157,huilong,36,CN,1554294714,89,28.89,110.18,50.99,3.85
158,honiara,64,SB,1554294714,99,-9.43,159.96,75.47,0.72
159,pevek,0,RU,1554294715,53,69.7,170.27,13.01,4.97
160,cody,40,US,1554294686,92,44.53,-109.06,39.99,4.7
161,vila velha,90,BR,1554294490,94,-3.71,-38.6,75.2,2.24
162,babu,56,CN,1554294715,91,23.23,104.89,61.16,2.73
163,jacksonville beach,1,US,1554294693,100,30.29,-81.39,55.99,5.3
164,melfi,40,IT,1554292500,45,41.0,15.66,66.2,6.93
165,buraydah,0,SA,1554292800,23,26.33,43.97,86.0,11.41
166,champerico,5,MX,1554292140,93,16.38,-93.6,60.8,2.24
167,xuanzhou,20,CN,1554294716,60,30.95,118.78,56.39,9.22
168,zarubino,12,RU,1554294717,69,42.65,131.06,40.64,6.2
169,isangel,44,VU,1554294588,99,-19.55,169.27,81.23,12.91
170,touros,75,BR,1554292800,100,-5.2,-35.46,77.0,3.36
171,finschhafen,92,PG,1554294717,96,-6.6,147.85,72.86,1.72
172,mahibadhoo,0,MV,1554294717,100,3.78,72.97,83.66,2.17
173,atherton,90,GB,1554294708,80,53.52,-2.49,45.0,4.7
174,siuna,80,NI,1554294718,97,13.73,-84.78,69.8,2.73
175,aanekoski,0,FI,1554294700,31,62.6,25.73,50.0,12.75
176,kamsack,1,CA,1554292800,78,51.56,-101.9,15.8,5.82
177,norman wells,75,CA,1554292800,84,65.28,-126.83,1.4,10.29
178,shimoda,20,JP,1554294612,36,34.7,138.93,46.0,12.75
179,lagoa,0,PT,1554294435,39,37.14,-8.45,66.2,11.41
180,kalengwa,0,ZM,1554294719,51,-13.47,25.0,84.47,11.68
181,luderitz,0,NA,1554294720,89,-26.65,15.16,65.57,10.67
182,jati,24,PK,1554294720,19,24.35,68.27,105.62,7.76
183,port elizabeth,1,US,1554294720,86,39.31,-74.98,45.0,6.93
184,saint-augustin,68,FR,1554294639,61,44.83,-0.61,53.01,14.99
185,las vegas,1,US,1554294503,44,36.17,-115.15,59.0,5.82
186,port hardy,90,CA,1554289200,87,50.7,-127.42,46.4,3.36
187,general roca,0,AR,1554292800,62,-39.03,-67.58,51.8,2.24
188,werda,0,DE,1554294694,44,50.44,12.3,63.0,5.82
189,balezino,0,RU,1554294722,80,57.97,53.01,38.66,11.79
190,vao,0,EE,1554294722,76,59.1,26.19,46.31,8.21
191,nanortalik,88,GL,1554294722,100,60.14,-45.24,31.19,36.62
192,garowe,0,SO,1554294722,29,8.41,48.48,95.0,6.98
193,portland,90,US,1554294717,87,45.52,-122.67,54.0,4.7
194,codajas,68,BR,1554294723,96,-3.84,-62.06,76.64,2.28
195,bereda,40,ES,1554294704,53,43.27,-7.54,55.0,18.34
196,swan hill,92,AU,1554294723,61,-35.34,143.56,64.58,11.79
197,hereford,75,GB,1554294626,75,52.06,-2.72,46.0,5.82
198,lovozero,32,RU,1554294724,82,68.01,35.02,36.05,4.52
199,padang,40,ID,1554292800,74,-0.92,100.36,84.2,3.36
200,innisfail,20,CA,1554294316,79,52.02,-113.95,26.6,6.93
201,saldanha,0,PT,1554294725,40,41.42,-6.55,53.96,10.0
202,cherskiy,0,RU,1554294725,65,68.75,161.3,20.21,6.42
203,ostrovnoy,32,RU,1554294725,92,68.05,39.51,34.25,10.45
204,sitka,80,US,1554294615,81,37.17,-99.65,44.01,11.01
205,butaritari,56,KI,1554294725,100,3.07,172.79,79.16,8.77
206,longyearbyen,75,NO,1554292200,72,78.22,15.63,12.2,5.82
207,mackay,1,CA,1554292800,86,53.65,-115.58,26.6,3.36
208,pangkalanbuun,64,ID,1554294726,90,-2.68,111.62,77.63,4.29
209,never,48,RU,1554294726,63,53.98,124.16,27.5,2.73
210,cabo san lucas,5,MX,1554294358,33,22.89,-109.91,62.6,5.82
211,tasiilaq,92,GL,1554292200,92,65.61,-37.64,30.2,34.45
212,zapolyarnyy,75,RU,1554292200,72,69.43,30.82,35.6,16.11
213,lethem,12,GY,1554294727,50,3.38,-59.8,84.47,12.91
214,erzin,75,TR,1554294679,52,36.95,36.2,66.2,5.82
215,jieshou,12,CN,1554294728,58,33.26,115.35,57.92,6.2
216,penzance,40,GB,1554294658,87,50.12,-5.53,46.99,25.28
217,nenjiang,0,CN,1554294728,55,49.17,125.23,34.61,10.11
218,lieksa,0,FI,1554294709,54,63.32,30.02,42.26,8.77
219,oranjemund,0,ZA,1554294729,90,-28.55,16.43,60.62,4.74
220,mocorito,0,MX,1554294616,96,25.48,-107.92,63.0,1.01
221,poum,75,MK,1554292800,40,41.28,20.71,53.6,4.7
222,mastung,20,PK,1554294729,23,29.8,66.85,79.07,8.1
223,regina,20,CA,1554294021,85,50.45,-104.62,15.8,9.17
224,mayumba,8,GA,1554294730,85,-3.44,10.65,86.09,9.55
225,bintulu,75,MY,1554292800,88,3.17,113.03,84.0,1.12
226,pakxan,44,LA,1554294730,81,18.39,103.66,78.26,1.83
227,lastoursville,8,GA,1554294730,56,-0.81,12.73,93.11,2.84
228,saint-georges,80,CA,1554293757,74,46.12,-70.67,35.01,1.01
229,methoni,20,GR,1554294640,39,36.82,21.7,66.2,10.45
230,bacolod,8,PH,1554294732,67,10.68,122.95,77.63,6.76
231,alofi,88,NU,1554292800,94,-19.06,-169.92,69.8,1.12
232,takoradi,20,GH,1554294732,88,4.89,-1.75,86.45,7.99
233,moses lake,90,US,1554294688,50,47.13,-119.28,53.6,3.36
234,kodiak,90,US,1554294424,36,39.95,-94.76,46.99,10.29
235,hofn,75,IS,1554292800,64,64.25,-15.21,35.6,3.36
236,hirara,75,JP,1554289200,88,24.8,125.28,64.4,14.99
237,havoysund,75,NO,1554290400,100,71.0,24.66,32.0,3.36
238,mahebourg,75,MU,1554294544,70,-20.41,57.7,84.2,11.41
239,ancud,75,CL,1554292800,100,-41.87,-73.83,46.4,4.7
240,mandera,0,ET,1554294678,9,3.94,41.86,97.0,1.99
241,birao,0,CF,1554294734,14,10.3,22.78,100.22,15.26
242,waipawa,48,NZ,1554294137,89,-39.94,176.59,46.99,3.74
243,san patricio,56,PY,1554294735,96,-26.98,-56.83,72.86,3.18
244,hualmay,88,PE,1554294735,96,-11.1,-77.61,65.93,3.4
245,gerash,40,IR,1554292800,47,27.67,54.14,78.8,11.41
246,dwarka,40,IN,1554294608,21,28.58,77.04,95.0,5.82
247,severo-kurilsk,92,RU,1554294735,93,50.68,156.12,32.81,7.43
248,yangcun,36,CN,1554294736,81,29.98,118.17,47.93,2.73
249,saint anthony,90,US,1554294319,93,43.97,-111.68,39.99,4.7
250,mana,40,RS,1554292800,38,43.52,20.24,60.8,16.11
251,talaya,0,RU,1554292800,30,55.79,84.89,41.0,4.47
252,sao felix do xingu,64,BR,1554294691,89,-6.64,-51.99,78.44,2.62
253,mareeba,75,AU,1554294480,94,-16.99,145.42,75.2,11.41
254,pimenta bueno,8,BR,1554294737,88,-11.68,-61.19,79.07,2.95
255,aviles,40,ES,1554294674,81,43.55,-5.92,52.0,12.75
256,nome,1,US,1554294736,87,30.04,-94.42,51.8,4.63
257,houston,40,US,1554294437,67,29.76,-95.37,57.99,4.29
258,tiksi,88,RU,1554294738,85,71.64,128.87,21.2,2.73
259,yar-sale,64,RU,1554294738,88,66.83,70.83,27.86,18.84
260,airai,64,TL,1554294739,83,-8.93,125.41,70.88,1.95
261,healdsburg,90,US,1554294731,100,38.61,-122.87,53.6,2.95
262,koumac,92,NC,1554294739,87,-20.56,164.28,77.81,4.41
263,lorengau,92,PG,1554294739,98,-2.02,147.27,83.03,6.42
264,biak,20,ID,1554294740,100,-0.91,122.88,77.9,1.95
265,mount isa,0,AU,1554292800,46,-20.73,139.49,73.4,5.82
266,avera,1,US,1554294721,100,33.19,-82.53,46.4,2.62
267,whyalla,12,AU,1554292800,64,-33.04,137.58,71.6,4.7
268,wladyslawowo,0,PL,1554294701,33,54.79,18.4,60.01,21.92
269,coquimbo,75,CL,1554292800,93,-29.95,-71.34,57.2,5.82
270,pacifica,90,US,1554294599,87,37.61,-122.49,55.0,4.7
271,san andres,36,PH,1554294741,96,13.32,122.68,82.94,8.21
272,havre-saint-pierre,75,CA,1554294060,91,50.23,-63.6,32.0,8.05
273,giulesti,0,RO,1554292800,25,47.82,23.93,63.0,10.29
274,svetlogorsk,90,RU,1554292800,95,53.14,59.15,32.0,20.13
275,mayo,75,CA,1554292800,36,63.59,-135.9,15.8,12.75
276,balakhta,56,RU,1554294743,45,55.38,91.62,36.59,9.66
277,port blair,8,IN,1554294743,100,11.67,92.75,85.01,4.97
278,kuching,75,MY,1554292800,88,1.56,110.34,75.2,4.7
279,boguchany,64,RU,1554294743,45,58.38,97.46,31.46,11.56
280,ishigaki,75,JP,1554289200,83,24.34,124.16,69.8,17.22
281,baykit,80,RU,1554294744,76,61.68,96.39,25.25,13.24
282,havelock,1,US,1554294426,100,34.88,-76.9,43.0,6.93
283,panorama,76,BR,1554294744,57,-21.35,-51.86,81.86,3.29
284,quelimane,40,MZ,1554292800,48,-17.88,36.89,87.8,10.29
285,alegrete,56,BR,1554294744,91,-29.79,-55.79,74.93,4.41
286,phulabani,12,IN,1554294745,23,20.47,84.23,94.37,3.4
287,caravelas,0,BR,1554294745,100,-17.73,-39.27,80.78,1.83
288,turka,8,UA,1554293582,31,49.16,23.03,57.0,5.01
289,dabhol,44,IN,1554294745,71,17.6,73.17,86.09,13.69
290,abha,40,SA,1554292800,56,18.22,42.5,71.6,18.34
291,ulaangom,0,MN,1554294746,77,49.98,92.07,39.83,0.72
292,qasigiannguit,40,GL,1554292200,63,68.82,-51.19,26.6,29.97
293,hamilton,75,BM,1554294688,88,32.3,-64.78,73.99,17.22
294,calabozo,0,VE,1554294747,67,8.92,-67.43,78.17,14.25
295,onega,8,RU,1554294747,73,63.91,38.09,37.49,12.91
296,steinbach,20,CA,1554294726,73,49.53,-96.69,23.0,11.41
297,prachuap khiri khan,56,TH,1554294749,62,11.81,99.79,82.76,3.18
298,waddan,0,LY,1554294749,35,29.16,16.14,71.78,4.52
299,kieta,88,PG,1554294749,100,-6.22,155.63,76.64,3.62
300,manggar,44,ID,1554294750,96,-2.88,108.27,79.97,2.95
301,muros,75,ES,1554294713,75,42.77,-9.06,57.0,19.46
302,port lincoln,68,AU,1554294750,92,-34.72,135.86,65.3,14.03
303,soyo,36,AO,1554294750,74,-6.13,12.37,88.7,3.4
304,kirishi,0,RU,1554294751,54,59.45,32.01,48.92,3.62
305,kimbe,80,PG,1554294751,100,-5.56,150.15,79.88,1.16
306,mazara del vallo,40,IT,1554294671,72,37.65,12.59,62.6,21.92
307,sioux lookout,20,CA,1554292800,72,50.1,-91.92,14.0,10.29
308,ilo,0,PE,1554292800,82,-17.65,-71.34,68.0,3.36
309,jasidih,0,IN,1554294752,22,24.51,86.65,92.75,7.43
310,sistranda,0,NO,1554294651,42,63.73,8.83,48.2,6.93
311,ampanihy,0,MG,1554294752,32,-24.69,44.75,92.03,4.41
312,huautla,88,MX,1554294753,100,21.03,-98.29,61.34,2.39
313,geraldton,20,CA,1554292800,61,49.72,-86.95,15.8,9.17
314,vite,75,ES,1554294713,75,42.89,-8.54,51.8,19.46
315,niquelandia,0,BR,1554294753,82,-14.47,-48.46,79.7,3.96
316,port shepstone,20,ZA,1554294753,91,-30.74,30.45,74.39,19.84
317,ozernovskiy,76,RU,1554294754,90,51.5,156.52,31.28,3.51
318,constitucion,75,MX,1554289860,50,23.99,-104.67,51.8,6.93
319,souillac,64,FR,1554294726,87,45.6,-0.6,53.01,18.34
320,zhanaozen,88,KZ,1554294755,99,43.35,52.85,46.04,16.26
321,balikpapan,20,ID,1554292800,100,-1.24,116.86,77.0,3.36
322,flinders,90,AU,1554294726,82,-34.58,150.85,68.0,4.7
323,jardim,88,BR,1554294755,82,-21.48,-56.15,77.0,10.67
324,voznesenye,0,RU,1554294755,75,61.02,35.48,41.09,9.1
325,erenhot,20,CN,1554294756,31,43.65,111.97,51.89,13.47
326,gonen,40,IL,1554294697,39,33.12,35.65,66.2,5.82
327,vilyuysk,44,RU,1554294756,76,63.75,121.63,27.32,2.62
328,anadyr,0,RU,1554294750,92,64.73,177.51,14.0,2.24
329,camacha,75,PT,1554292800,63,33.08,-16.33,62.6,18.34
330,jacareacanga,36,BR,1554294757,85,-6.22,-57.76,79.88,2.84
331,talas,75,TR,1554292200,37,38.69,35.55,53.6,1.12
332,great falls,20,US,1554294682,79,47.5,-111.29,34.0,2.95
333,simao,24,CN,1554294757,96,22.76,100.79,58.82,2.06
334,merauke,88,ID,1554294758,93,-8.49,140.4,81.59,5.41
335,metro,8,ID,1554294583,71,-5.11,105.31,84.29,7.76
336,sinegorye,80,RU,1554294758,98,62.09,150.53,14.63,2.17
337,qiyang,76,CN,1554294758,96,26.59,111.85,54.86,4.18
338,shingu,0,JP,1554294759,100,33.72,135.99,52.16,10.45
339,belaya gora,0,RU,1554294759,59,68.54,146.19,1.85,2.39
340,cam ranh,40,VN,1554292800,79,11.92,109.15,84.2,9.17
341,atar,48,MR,1554292800,100,20.52,-13.05,71.6,6.93
342,arraial do cabo,40,BR,1554292800,65,-22.97,-42.02,82.4,6.93
343,stykkisholmur,92,IS,1554294760,89,65.08,-22.73,38.57,26.78
344,hammerfest,75,NO,1554292200,100,70.66,23.68,33.8,3.36
345,morondava,0,MG,1554294760,59,-20.3,44.28,90.86,8.55
346,manavalakurichi,40,IN,1554292800,66,8.13,77.3,89.6,6.93
347,maceio,75,BR,1554292800,66,-9.67,-35.74,84.2,3.36
348,ossora,92,RU,1554294761,95,59.24,163.07,32.27,21.74
349,tuktoyaktuk,56,CA,1554294761,78,69.44,-133.03,-0.49,13.69
350,morehead,1,US,1554294692,45,38.18,-83.43,46.4,5.82
351,santiago del estero,0,AR,1554294633,94,-27.8,-64.26,74.3,4.52
352,rawson,36,AR,1554294762,46,-43.3,-65.11,52.16,4.07
353,althofen,75,AT,1554294656,47,46.87,14.47,59.0,2.24
354,ulverstone,0,AU,1554294724,61,-41.16,146.17,51.01,7.0
355,imbituba,0,BR,1554292800,74,-28.24,-48.67,78.8,8.05
356,lazaro cardenas,0,MX,1554294650,33,28.39,-105.62,57.0,3.0
357,cabadiangan,20,PH,1554292800,69,10.45,123.98,80.6,3.36
358,bogorodskoye,12,RU,1554294763,65,52.37,140.44,21.29,4.63
359,mumford,32,GH,1554294763,71,5.26,-0.76,90.14,7.65
360,taltal,32,CL,1554294763,93,-25.41,-70.49,53.24,0.94
361,rafai,0,CF,1554294764,46,4.95,23.92,96.62,9.44
362,teahupoo,20,PF,1554294745,78,-17.83,-149.27,78.8,2.24
363,te anau,0,NZ,1554294764,79,-45.41,167.72,34.79,4.63
364,miandrivazo,0,MG,1554294764,36,-19.53,45.46,95.36,8.21
365,parintins,44,BR,1554294764,80,-2.63,-56.73,82.22,3.06
366,aklavik,40,CA,1554292800,75,68.22,-135.01,-14.81,4.7
367,mangrol,0,IN,1554294765,19,25.33,76.51,98.33,5.75
368,komsomolskiy,80,RU,1554294765,94,67.55,63.78,28.13,12.68
369,rudsar,40,IR,1554292800,82,37.14,50.29,60.8,6.93
370,kahta,75,TR,1554292200,76,37.78,38.62,54.0,5.82
371,axim,12,GH,1554294766,92,4.87,-2.24,85.28,11.79
372,bud,0,NO,1554294654,34,62.91,6.91,50.0,3.36
373,atikokan,0,CA,1554294766,73,48.76,-91.62,16.52,5.64
374,eyl,20,SO,1554294766,81,7.98,49.82,84.11,10.45
375,cockburn town,0,TC,1554294767,97,21.46,-71.14,78.71,10.0
376,monroe,1,US,1554294587,86,41.91,-83.4,42.01,8.05
377,pirot,20,RS,1554292800,36,43.16,22.59,64.4,6.93
378,conceicao do araguaia,8,BR,1554294614,100,-8.26,-49.26,79.7,4.29
379,aksarka,0,RU,1554294768,88,66.56,67.8,26.96,14.7
380,jaisalmer,0,IN,1554294588,19,26.91,70.91,102.74,5.19
381,hollins,1,US,1554294724,56,37.35,-79.95,48.99,10.29
382,uvat,36,RU,1554294768,51,59.14,68.9,37.94,3.06
383,sawakin,0,SD,1554289200,23,19.1,37.33,86.0,12.75
384,oruro,90,BO,1554292800,93,-17.97,-67.11,46.4,3.36
385,harper,90,US,1554294450,82,30.3,-99.24,57.2,9.17
386,srednekolymsk,0,RU,1554294769,79,67.46,153.71,15.53,2.39
387,cabedelo,40,BR,1554292800,79,-6.97,-34.84,86.0,5.82
388,moose factory,90,CA,1554294300,92,51.26,-80.61,30.2,17.22
389,baculin,44,PH,1554294770,95,7.45,126.58,76.73,9.33
390,tevaitoa,32,PF,1554294770,98,-16.78,-151.5,84.11,8.32
391,cayenne,75,GF,1554292800,74,4.94,-52.33,82.4,13.87
392,ambilobe,20,MG,1554294770,90,-13.19,49.05,83.12,8.88
393,kandrian,92,PG,1554294770,92,-6.21,149.55,77.9,2.39
394,keelung,75,TW,1554294699,83,25.13,121.74,71.6,2.24
395,petauke,12,ZM,1554294771,36,-14.25,31.33,85.28,9.89
396,bakhtiyarpur,0,IN,1554292800,38,25.46,85.54,89.6,9.17
397,port moresby,20,PG,1554292800,94,-9.47,147.16,77.0,5.82
398,belmonte,0,PT,1554294678,47,40.36,-7.35,54.0,7.0
399,dobroye,64,RU,1554294772,69,52.86,39.81,42.44,17.83
400,ust-tsilma,92,RU,1554294637,83,65.44,52.15,39.83,7.99
401,kavieng,68,PG,1554294772,98,-2.57,150.8,84.56,7.2
402,honningsvag,90,NO,1554292200,100,70.98,25.97,32.0,2.24
403,kavaratti,0,IN,1554294773,100,10.57,72.64,84.29,6.31
404,tigzirt,36,DZ,1554294569,67,36.57,4.2,63.0,8.01
405,phalaborwa,92,ZA,1554292800,69,-23.95,31.14,77.0,9.17
406,troitsko-pechorsk,0,RU,1554294773,60,62.71,56.19,40.46,8.21
407,san vicente,40,SV,1554294641,83,13.64,-88.78,77.0,1.12
408,hirado,0,JP,1554294748,45,33.32,129.49,48.2,6.93
409,esperanza,76,PH,1554294775,65,6.72,124.52,81.5,2.73
410,lyuban,0,BY,1554294775,46,52.8,28.0,51.71,9.22
411,lata,48,IN,1554294776,71,30.78,78.62,58.91,0.38
412,awbari,12,LY,1554294776,34,26.59,12.77,78.71,8.43
413,haines junction,76,CA,1554294776,83,60.75,-137.51,22.01,1.83
414,natal,75,BR,1554292800,94,-5.81,-35.21,77.0,4.7
415,najran,40,SA,1554292800,22,17.54,44.22,91.4,17.22
416,myingyan,0,MM,1554291000,34,21.46,95.39,93.2,5.82
417,bambous virieux,75,MU,1554294544,70,-20.34,57.76,84.2,11.41
418,umm lajj,0,SA,1554294777,60,25.02,37.27,77.27,8.77
419,xining,64,CN,1554294778,36,36.62,101.77,43.07,3.4
420,aden,0,YE,1554294778,96,12.79,45.03,81.05,9.22
421,kirakira,44,SB,1554294778,100,-10.46,161.92,82.67,9.33
422,manta,44,RO,1554294779,41,45.1,24.1,50.63,6.2
423,butembo,20,CD,1554294779,78,0.12,29.29,76.55,2.84
424,rio grande,0,BR,1554292800,74,-32.03,-52.1,78.8,4.7
425,anito,0,PH,1554294779,96,12.45,125.29,80.42,11.34
426,narkevychi,0,UA,1554294779,70,49.52,26.64,47.3,14.92
427,goderich,76,CA,1554294752,87,43.74,-81.71,39.99,1.01
428,entre rios,64,BR,1554294780,94,-11.94,-38.08,80.69,3.74
429,miri,0,NG,1554294780,16,10.31,9.75,99.41,11.01
430,alanya,75,TR,1554292200,68,36.55,32.0,64.4,4.7
431,porbandar,0,IN,1554294781,54,21.64,69.61,84.74,14.14
432,vila praia de ancora,75,PT,1554294616,76,41.81,-8.85,57.0,9.17
433,aljezur,0,PT,1554294729,65,37.31,-8.8,64.0,5.01
434,oswego,40,US,1554294700,81,37.17,-95.11,48.99,9.78
435,homer,1,US,1554294674,92,59.64,-151.54,37.0,10.56
436,vila franca do campo,20,PT,1554294743,62,37.72,-25.43,59.0,18.34
437,severo-yeniseyskiy,80,RU,1554294609,63,60.37,93.04,28.04,9.44
438,matias olimpio,92,BR,1554294782,100,-3.72,-42.56,75.74,2.62
439,mae hong son,20,MM,1554292800,42,19.3,97.96,82.4,2.51
440,mandla,0,IN,1554294783,20,22.6,80.37,95.09,6.2
441,the valley,40,AI,1554294752,65,18.22,-63.06,80.6,16.11
442,voh,92,NC,1554294783,97,-20.95,164.69,79.79,7.65
443,quang ngai,88,VN,1554294783,92,15.12,108.8,73.13,1.83
444,jalu,12,LY,1554294784,44,29.03,21.55,75.65,4.97
445,port-gentil,20,GA,1554292800,66,-0.72,8.78,89.6,5.82
446,leshukonskoye,76,RU,1554294784,65,64.9,45.76,40.91,8.66
447,pleasanton,90,US,1554294774,87,37.66,-121.87,55.0,2.73
448,chuy,36,UY,1554294785,97,-33.69,-53.46,69.62,14.7
449,galle,90,US,1554294783,76,29.74,-97.91,57.99,3.36
450,kindu,32,CD,1554294785,63,-2.95,25.92,87.17,3.06
451,teya,5,MX,1554294752,88,21.05,-89.07,73.99,9.17
452,mahanoro,80,MG,1554294786,88,-19.9,48.8,78.89,3.4
453,laguna,0,MX,1554294786,59,27.52,-110.01,55.58,2.17
454,itarema,64,BR,1554294787,100,-2.92,-39.92,78.89,4.41
455,springbok,8,ZA,1554294787,16,-29.67,17.88,84.2,9.55
456,the pas,20,CA,1554292800,71,53.82,-101.24,8.6,6.93
457,north platte,90,US,1554294676,75,41.12,-100.77,43.0,4.7
458,santa fe,90,AR,1554294492,100,-31.62,-60.7,75.0,10.29
459,upata,0,VE,1554294788,72,8.02,-62.41,74.93,5.53
460,san carlos de bariloche,0,AR,1554292800,64,-41.13,-71.31,33.8,4.7
461,kahului,1,US,1554294578,100,20.89,-156.47,69.01,24.16
462,mezen,76,RU,1554294789,69,65.85,44.24,38.84,9.44
463,pochutla,5,MX,1554294677,74,15.74,-96.47,78.8,4.63
464,davila,20,PH,1554292800,74,18.47,120.58,82.4,4.7
465,inhambane,75,MZ,1554292800,69,-23.87,35.38,82.4,6.93
466,prainha,56,BR,1554294791,87,-1.8,-53.48,80.51,3.18
467,ilave,92,PE,1554294791,100,-16.09,-69.64,40.28,4.41
468,alice springs,0,AU,1554292800,19,-23.7,133.88,71.6,4.7
469,chato,0,TZ,1554294791,75,-2.64,31.77,81.59,5.19
470,vangaindrano,24,MG,1554294792,82,-23.35,47.6,80.24,4.74
471,charleston,75,US,1554294654,54,38.35,-81.63,44.01,6.93
472,moron,76,VE,1554294792,85,10.49,-68.2,68.72,2.84
473,blagoyevo,36,RU,1554294792,60,63.37,47.92,42.89,9.22
474,gravdal,75,NO,1554294723,61,59.79,5.78,48.2,10.29
475,tankhoy,88,RU,1554294252,39,51.55,105.12,32.0,15.01
476,carupano,76,VE,1554294613,90,10.67,-63.26,76.64,10.22
477,fort nelson,90,CA,1554292800,85,58.81,-122.69,17.6,11.41
478,daokou,44,CN,1554294793,54,35.61,105.12,47.84,9.78
479,klaksvik,40,FO,1554292320,100,62.23,-6.59,37.4,32.21
480,klyuchi,48,RU,1554294794,48,52.25,79.17,55.31,10.89
481,canico,75,PT,1554294785,77,32.63,-16.85,62.6,19.46
482,okha,80,RU,1554294794,92,53.59,142.95,24.71,17.27
483,saint-louis,75,CH,1554294779,81,47.59,7.56,55.0,10.29
484,tipitapa,20,NI,1554292800,78,12.2,-86.1,75.2,6.93
485,juegang,0,CN,1554294662,78,32.31,121.18,55.0,1.99
486,jequitinhonha,0,BR,1554294796,75,-16.43,-41.0,78.17,2.95
487,ibirapitanga,8,BR,1554294796,83,-14.16,-39.37,80.06,4.07
488,villagarzon,92,CO,1554294796,96,1.04,-76.63,59.99,0.94
489,lompoc,75,US,1554294509,93,34.64,-120.46,51.8,4.41
490,podgorodnyaya pokrovka,90,RU,1554292800,93,51.83,54.99,41.0,22.37
491,kedrovoye,0,RU,1554292800,48,57.16,60.57,39.2,15.66
492,tuatapere,8,NZ,1554294608,90,-46.13,167.69,45.0,12.01
493,wuwei,88,CN,1554294797,38,37.93,102.64,44.06,3.06
494,mnogovershinnyy,56,RU,1554294797,89,53.94,139.92,18.86,3.4
495,hattiesburg,1,US,1554294358,86,31.33,-89.29,46.0,3.51
496,paita,48,PE,1554294798,80,-5.09,-81.11,71.42,3.96
497,ulladulla,90,AU,1554294654,82,-35.36,150.48,66.2,4.7
498,balkanabat,0,TM,1554294798,42,39.51,54.36,67.19,0.72
499,hasaki,20,JP,1554294627,41,35.73,140.83,42.8,4.7
500,san cristobal,75,EC,1554294601,100,-0.39,-78.55,55.4,2.24
501,igrim,0,RU,1554294799,53,63.19,64.42,39.56,8.77
502,ouesso,0,CG,1554294799,56,1.61,16.05,92.3,2.17
503,taoudenni,64,ML,1554294799,26,22.68,-3.98,93.11,8.1
504,ayorou,12,NE,1554294800,12,14.73,0.92,108.14,16.37
505,tahe,24,CN,1554294800,69,52.34,124.71,28.22,2.17
506,dillon,90,US,1554294690,93,45.22,-112.64,37.4,3.36
507,minsk,0,BY,1554292800,29,53.9,27.56,51.8,11.18
508,barmer,0,IN,1554294801,12,25.74,71.4,106.7,4.63
509,iranshahr,0,IR,1554292800,18,27.21,60.69,91.4,18.34
510,erbaa,75,TR,1554292200,38,40.67,36.56,59.0,6.93
511,marrakesh,0,MA,1554294802,39,31.63,-7.99,77.54,8.66
512,salta,75,AR,1554294480,93,-24.79,-65.41,68.0,2.95
513,auki,0,NG,1554294802,16,12.18,6.51,103.46,16.37
514,ranau,75,MY,1554294616,83,5.95,116.67,81.0,4.7
515,sorong,32,ID,1554294802,94,-0.86,131.25,84.47,5.97
516,lasa,40,CY,1554294693,64,34.92,32.53,68.0,3.36
517,mitu,20,IR,1554294803,62,36.2,46.09,46.4,3.85
518,rancho palos verdes,90,US,1554294727,77,33.75,-118.37,59.0,4.7
519,strezhevoy,0,RU,1554292800,37,60.73,77.6,37.4,4.47
520,jawhar,0,IN,1554294803,23,19.91,73.23,99.5,8.21
521,ambon,36,FR,1554294726,61,47.55,-2.56,52.0,8.05
522,macouria,75,GF,1554292800,74,5.01,-52.47,82.4,13.87
523,acapulco,5,MX,1554291900,88,16.86,-99.88,71.6,3.29
524,yairipok,20,IN,1554292800,53,24.67,94.07,71.6,2.24
525,kutum,0,SD,1554294805,18,14.2,24.66,88.34,5.53
526,big rapids,1,US,1554294802,59,43.7,-85.48,36.0,8.05
527,novaya malykla,92,RU,1554294805,92,54.21,49.93,34.61,19.62
528,salalah,0,OM,1554292200,48,17.01,54.1,87.8,10.29
529,la asuncion,44,EC,1554294805,92,-1.64,-78.74,46.13,0.6
530,betong,44,MY,1554294806,94,5.77,101.07,76.19,1.95
531,waki,20,JP,1554294466,45,34.19,132.21,48.2,5.82
532,ulaanbaatar,40,MN,1554292800,10,47.92,106.92,55.4,17.9
533,meulaboh,56,ID,1554294806,100,4.14,96.13,81.05,0.38
534,middlebury,1,US,1554294577,55,44.01,-73.17,39.99,3.36
535,bulungu,20,CD,1554294807,75,-4.54,18.6,90.59,2.84
536,flin flon,5,CA,1554292800,71,54.77,-101.88,5.0,4.7
537,necochea,0,AR,1554294491,19,-38.55,-58.74,61.0,1.99
538,kenai,1,US,1554294724,86,60.55,-151.26,34.0,2.95
539,murighiol,0,RO,1554292800,32,45.04,29.17,52.0,11.41
540,collie,64,AU,1554294700,44,-33.36,116.15,69.01,2.62
541,saint-pierre,12,FR,1554294725,70,48.95,4.24,50.0,11.41
542,katherine,90,AU,1554292800,61,-14.47,132.26,82.4,4.7
543,visby,0,SE,1554293778,45,57.64,18.3,48.2,23.04
544,chara,75,GR,1554294807,48,39.42,22.43,64.99,4.7
545,constantine,40,DZ,1554292800,60,36.36,6.61,68.0,12.75
546,hue,20,VN,1554292800,94,16.47,107.58,78.8,5.82
547,lunenburg,90,US,1554294801,93,42.59,-71.72,37.99,4.7
548,zhigansk,44,RU,1554294810,80,66.77,123.37,27.95,7.43
549,lumphat,56,KH,1554294810,96,13.5,106.97,73.76,3.62
550,pinheiro machado,0,BR,1554294811,94,-31.58,-53.38,73.04,4.74
551,namibe,0,AO,1554294811,100,-15.19,12.15,80.51,6.98
552,tamworth,0,AU,1554294674,59,-31.09,150.93,68.0,10.29
553,formosa do rio preto,0,BR,1554294812,62,-11.04,-45.19,83.21,4.63
554,san angelo,92,US,1554294703,78,31.46,-100.44,59.0,8.01
555,ondjiva,0,AO,1554294812,32,-17.07,15.73,94.37,10.45
556,henties bay,0,NA,1554292929,80,-22.12,14.28,64.99,8.99
557,haicheng,0,CN,1554294812,30,40.85,122.74,49.46,13.02
558,hangzhou,56,CN,1554294775,87,30.25,120.21,59.0,2.24
559,yinchuan,76,CN,1554294806,6,38.48,106.21,60.01,1.99
560,longhua,64,CN,1554294813,74,29.21,106.21,61.97,3.4
