City_ID,City,Cloudiness,Country,Date,Humidity,Lat,Lng,Max Temp,Wind Speed
0,haines junction,24,CA,1554236056,42,60.75,-137.51,41.05,2.73
1,hermanus,0,ZA,1554235341,76,-34.42,19.24,64.99,10.0
2,sumkino,24,RU,1554236057,77,58.11,68.32,20.62,2.73
3,awjilah,0,LY,1554236057,38,29.14,21.3,67.15,13.02
4,kautokeino,88,NO,1554236057,92,69.01,23.04,30.7,4.74
5,vaini,0,IN,1554236027,92,15.34,74.49,66.43,2.51
6,hobart,0,AU,1554235935,59,-42.88,147.33,61.0,10.29
7,mataura,0,NZ,1554235805,93,-46.19,168.86,44.01,1.01
8,new norfolk,0,AU,1554236056,59,-42.78,147.06,61.0,10.29
9,escarcega,12,MX,1554236058,71,18.61,-90.75,84.25,2.95
10,srednekolymsk,48,RU,1554236058,87,67.46,153.71,10.27,2.62
11,hasaki,20,JP,1554235476,69,35.73,140.83,33.8,4.7
12,hemsedal,88,NO,1554235678,68,60.86,8.55,26.01,1.01
13,vardo,75,US,1554236056,42,39.62,-77.74,48.99,5.82
14,bilibino,0,RU,1554236059,81,68.06,166.44,24.22,2.62
15,temir,92,KZ,1554236059,93,49.14,57.13,47.35,18.61
16,thompson,75,CA,1554231600,56,55.74,-97.86,15.8,11.41
17,constitucion,75,MX,1554235816,12,23.99,-104.67,78.01,9.17
18,bilma,0,NE,1554235988,27,18.69,12.92,73.0,7.65
19,alofi,56,NU,1554231600,78,-19.06,-169.92,78.8,6.93
20,kavieng,64,PG,1554236060,100,-2.57,150.8,83.8,10.22
21,indiaroba,92,BR,1554236061,85,-11.53,-37.51,78.58,8.66
22,sikonge,68,TZ,1554236061,92,-5.63,32.75,67.06,3.74
23,hithadhoo,32,MV,1554236061,100,-0.6,73.08,84.16,8.21
24,aklavik,90,CA,1554232800,71,68.22,-135.01,6.8,9.17
25,bluff,0,AU,1554236062,80,-23.58,149.07,64.9,11.45
26,ushuaia,75,AR,1554231600,66,-54.81,-68.31,50.0,23.04
27,cacu,12,BR,1554236062,72,-18.56,-51.13,83.17,3.18
28,georgetown,0,GY,1554235915,56,6.8,-58.16,83.89,8.77
29,lorengau,80,PG,1554236063,98,-2.02,147.27,82.72,10.56
30,leanyfalu,0,HU,1554235986,43,47.72,19.09,55.0,6.93
31,kapaa,90,US,1554236003,78,22.08,-159.32,77.0,12.75
32,krasnyy chikoy,0,RU,1554235924,67,50.36,108.75,19.63,3.18
33,fairbanks,90,US,1554236046,52,64.84,-147.72,41.0,4.74
34,nome,1,US,1554235982,28,30.04,-94.42,71.01,5.82
35,ndola,8,ZM,1554236064,67,-12.97,28.64,67.42,7.76
36,punta arenas,75,CL,1554235952,70,-53.16,-70.91,51.8,25.28
37,busselton,0,AU,1554235806,50,-33.64,115.35,61.0,22.97
38,gobabis,44,NA,1554236065,82,-22.45,18.97,61.66,4.97
39,khatanga,68,RU,1554236065,91,71.98,102.47,18.73,5.19
40,barrow,0,AR,1554236066,50,-38.31,-60.23,69.31,17.72
41,hvide sande,80,DK,1554235691,75,56.01,8.13,46.99,9.17
42,sola,0,FI,1554235927,55,62.78,29.36,33.8,4.7
43,cape town,0,ZA,1554235932,68,-33.93,18.42,64.99,9.17
44,tuktoyaktuk,20,CA,1554231600,70,69.44,-133.03,-2.21,10.29
45,bogorodskoye,0,RU,1554236067,64,52.37,140.44,10.9,2.17
46,flinders,0,AU,1554235898,100,-34.58,150.85,57.0,5.82
47,qaqortoq,56,GL,1554234600,80,60.72,-46.03,39.2,24.16
48,jinka,76,ET,1554236067,56,5.79,36.57,68.95,1.05
49,killam,0,CA,1554236068,63,52.79,-111.86,38.8,12.46
50,fayaoue,80,NC,1554236068,100,-20.65,166.53,79.12,14.7
51,chingirlau,92,KZ,1554236068,92,51.09,54.08,41.05,15.48
52,port elizabeth,90,US,1554236060,65,39.31,-74.98,52.0,16.11
53,christchurch,68,NZ,1554235804,100,-43.53,172.64,51.01,1.12
54,lompoc,75,US,1554236055,36,34.64,-120.46,66.99,11.41
55,rikitea,12,PF,1554236047,100,-23.12,-134.97,76.15,16.71
56,kaoma,0,ZM,1554236069,38,-14.8,24.8,70.66,10.78
57,ponta do sol,12,BR,1554236069,75,-20.63,-46.0,75.07,2.17
58,basco,90,US,1554236031,61,40.33,-91.2,55.99,14.99
59,albany,75,US,1554236041,23,42.65,-73.75,52.0,14.99
60,upernavik,44,GL,1554236070,100,72.79,-56.15,13.96,18.28
61,mahebourg,40,MU,1554235740,83,-20.41,57.7,78.8,7.31
62,severo-kurilsk,88,RU,1554236070,97,50.68,156.12,31.33,18.39
63,kruisfontein,44,ZA,1554236071,73,-34.0,24.73,62.47,13.13
64,bredasdorp,12,ZA,1554235341,72,-34.53,20.04,62.6,11.41
65,meridian,1,US,1554235080,26,32.36,-88.7,69.8,12.75
66,dayong,8,PH,1554236072,100,11.74,122.04,79.75,18.16
67,sur,0,OM,1554235797,81,22.57,59.53,79.75,3.62
68,sorland,40,NO,1554231000,80,67.67,12.69,39.2,3.36
69,nalut,0,LY,1554236072,77,31.86,10.98,55.09,4.74
70,east london,88,ZA,1554236072,100,-33.02,27.91,68.59,17.94
71,yatou,75,CM,1554231600,83,3.63,9.81,84.2,3.36
72,hilo,90,US,1554236067,88,19.71,-155.08,73.99,6.93
73,grootfontein,8,NA,1554236073,64,-19.56,18.1,67.51,4.41
74,saint-philippe,1,CA,1554235986,29,45.36,-73.48,50.0,18.34
75,kawalu,64,ID,1554236074,99,-7.38,108.21,64.63,1.72
76,lagoa,0,PT,1554235930,82,37.14,-8.45,61.0,4.7
77,mugur-aksy,0,RU,1554236074,76,50.38,90.44,13.33,3.29
78,castro,75,CL,1554231600,63,-42.48,-73.76,60.8,4.7
79,hernani,75,ES,1554236042,82,43.27,-1.98,55.99,4.7
80,matina,40,CR,1554235983,70,10.08,-83.29,87.01,12.75
81,bandarbeyla,0,SO,1554236075,100,9.49,50.81,78.85,4.18
82,galveston,1,US,1554236066,43,40.58,-86.19,57.99,17.22
83,la ronge,75,CA,1554232620,53,55.1,-105.3,21.2,14.99
84,matam,64,SN,1554236076,24,15.66,-13.26,93.52,15.48
85,guerrero negro,0,MX,1554236076,37,27.97,-114.04,76.33,7.31
86,shingu,0,JP,1554236077,100,33.72,135.99,46.63,16.26
87,sao joao da barra,20,BR,1554231600,58,-21.64,-41.05,82.4,9.17
88,abeche,0,TD,1554236077,36,13.83,20.83,73.45,5.19
89,sorong,48,ID,1554236077,100,-0.86,131.25,82.45,9.55
90,risti,0,EE,1554235987,59,59.0,24.06,37.99,4.7
91,chokurdakh,68,RU,1554236078,77,70.62,147.9,5.05,3.18
92,cherskiy,48,RU,1554236078,79,68.75,161.3,28.81,6.76
93,ayan,76,TR,1554236078,56,40.67,33.6,34.21,1.28
94,pimentel,0,BR,1554236078,78,-3.7,-45.5,83.8,2.39
95,faanui,20,PF,1554236079,100,-16.48,-151.75,84.52,11.12
96,arraial do cabo,0,BR,1554231600,61,-22.97,-42.02,82.4,8.05
97,margate,0,AU,1554236056,59,-43.03,147.26,61.0,10.29
98,port blair,0,IN,1554236080,100,11.67,92.75,83.98,2.95
99,kahului,40,US,1554236037,57,20.89,-156.47,80.6,14.99
100,talcahuano,0,CL,1554231600,60,-36.72,-73.12,73.4,18.34
101,cranbrook,20,CA,1554235200,37,49.51,-115.76,51.8,5.82
102,atuona,0,PF,1554235815,100,-9.8,-139.03,81.82,12.46
103,bethel,1,US,1554231360,86,60.79,-161.76,35.6,9.17
104,boppard,0,DE,1554236025,81,50.23,7.59,55.0,10.29
105,naze,36,NG,1554236081,73,5.43,7.07,81.82,9.66
106,george,20,NG,1554231600,84,6.63,3.35,86.0,5.82
107,nyurba,0,RU,1554236082,81,63.29,118.35,24.4,6.64
108,pevek,12,RU,1554236082,82,69.7,170.27,24.04,14.25
109,hofn,0,IS,1554236082,100,64.25,-15.21,30.52,17.72
110,viedma,0,AR,1554236082,36,-40.81,-62.99,70.39,15.7
111,sehithwa,56,BW,1554236083,33,-20.47,22.7,74.98,9.33
112,marsaxlokk,20,MT,1554235823,82,35.84,14.54,57.0,3.36
113,nouadhibou,20,MR,1554231600,68,20.93,-17.03,68.0,8.05
114,ancud,75,CL,1554231600,63,-41.87,-73.83,60.8,4.7
115,rawson,0,AR,1554236084,22,-43.3,-65.11,76.15,8.99
116,carnarvon,0,ZA,1554236084,45,-30.97,22.13,51.13,2.62
117,coihaique,40,CL,1554231600,51,-45.58,-72.07,59.0,5.82
118,wuzhou,68,CN,1554236084,94,23.48,111.3,65.62,3.29
119,baker,75,US,1554234660,52,46.37,-104.28,44.6,12.75
120,ahipara,0,NZ,1554236085,84,-35.17,173.16,64.63,9.78
121,norman wells,75,CA,1554231600,60,65.28,-126.83,8.6,9.17
122,baisha,68,CN,1554236085,92,19.23,109.45,69.13,0.83
123,salalah,20,OM,1554231000,74,17.01,54.1,80.6,5.82
124,saskylakh,92,RU,1554236086,84,71.97,114.09,22.51,3.4
125,provideniya,8,RU,1554236086,100,64.42,-173.23,24.85,13.8
126,yarada,0,IN,1554236086,98,17.65,83.27,83.62,14.25
127,clyde river,90,CA,1554233820,84,70.47,-68.59,3.2,32.21
128,talnakh,64,RU,1554236086,74,69.49,88.39,17.83,3.18
129,gainesville,1,US,1554236063,53,29.65,-82.33,73.0,11.41
130,tuatapere,0,NZ,1554235805,93,-46.13,167.69,44.01,1.01
131,yulara,0,AU,1554231600,28,-25.24,130.99,59.0,8.05
132,inhambane,0,MZ,1554231600,78,-23.87,35.38,75.2,6.93
133,jamestown,0,AU,1554236088,78,-33.21,138.6,46.27,5.19
134,butaritari,92,KI,1554236055,100,3.07,172.79,77.05,9.44
135,dikson,76,RU,1554236088,98,73.51,80.55,25.57,24.76
136,codrington,75,AU,1554235823,93,-28.95,153.24,69.8,6.93
137,chuy,8,UY,1554236088,77,-33.69,-53.46,78.85,5.08
138,arklow,75,IE,1554235263,86,52.79,-6.14,37.99,13.87
139,kutum,0,SD,1554236089,32,14.2,24.66,63.1,7.2
140,gat,0,SN,1554233400,64,14.69,-16.54,69.8,23.04
141,vanimo,68,PG,1554236089,98,-2.67,141.3,83.44,15.26
142,la asuncion,75,EC,1554231600,60,-1.64,-78.74,73.4,9.17
143,avera,90,US,1554236030,71,33.19,-82.53,66.99,5.82
144,tallahassee,20,US,1554235820,40,30.44,-84.28,72.0,6.93
145,ayr,40,GB,1554235690,80,55.46,-4.63,41.0,10.29
146,qaanaaq,0,GL,1554236090,84,77.48,-69.36,-0.45,6.98
147,baiyin,0,CN,1554231600,29,36.55,104.13,37.4,4.47
148,mount darwin,24,ZW,1554236091,70,-16.77,31.58,69.13,9.22
149,vila velha,40,BR,1554235689,70,-3.71,-38.6,84.2,12.75
150,shimoda,0,JP,1554235811,65,34.7,138.93,37.0,13.02
151,puerto ayora,20,EC,1554235309,70,-0.74,-90.35,86.0,13.87
152,rocha,8,UY,1554236092,94,-34.48,-54.34,73.18,2.51
153,rapid city,40,US,1554235805,39,44.08,-103.23,54.0,13.87
154,kaitangata,0,NZ,1554236022,86,-46.28,169.85,46.99,4.0
155,conakry,40,GN,1554235200,69,9.52,-13.7,82.4,9.17
156,torbay,40,CA,1554236019,47,47.66,-52.73,37.0,32.21
157,cayenne,75,GF,1554233400,83,4.94,-52.33,80.6,6.93
158,longyearbyen,75,NO,1554232800,78,78.22,15.63,8.6,2.24
159,dingle,32,PH,1554236016,79,11.0,122.67,75.79,10.89
160,nikolskoye,0,RU,1554235836,68,59.7,30.79,34.0,4.47
161,sao filipe,0,CV,1554236093,97,14.9,-24.5,70.75,11.79
162,lebu,100,ET,1554236041,78,8.96,38.73,52.84,1.83
163,cabo san lucas,75,MX,1554235818,42,22.89,-109.91,90.0,2.24
164,hastings,56,NZ,1554236094,100,-39.64,176.84,58.78,15.82
165,sorsk,0,RU,1554236094,82,54.0,90.25,32.59,11.79
166,tari,8,NG,1554236095,22,12.41,4.49,85.6,7.99
167,ardatov,0,RU,1554236095,83,55.24,43.1,26.29,8.77
168,barcelos,0,PT,1554236002,76,41.53,-8.62,55.4,16.11
169,arkhara,0,RU,1554236095,68,49.42,130.09,17.29,2.62
170,airai,36,TL,1554236096,85,-8.93,125.41,68.32,1.16
171,fergus falls,75,US,1554235525,69,46.28,-96.08,41.0,25.28
172,quelimane,20,MZ,1554231600,78,-17.88,36.89,77.0,2.24
173,kyshtovka,64,RU,1554236096,94,56.56,76.62,28.63,6.42
174,vanino,0,RU,1554236054,47,53.93,40.55,35.01,3.0
175,tiksi,44,RU,1554236097,78,71.64,128.87,6.4,2.73
176,ribeira grande,40,PT,1554235200,71,38.52,-28.7,57.2,12.75
177,zatoka,0,PL,1554236090,42,50.04,20.52,46.99,10.29
178,port alfred,24,ZA,1554236060,83,-33.59,26.89,64.0,1.99
179,lokachi,0,UA,1554235837,44,50.74,24.65,41.0,13.69
180,palu,56,ID,1554236098,94,-0.9,119.87,64.99,1.61
181,faya,0,SA,1554231600,72,18.39,42.45,64.4,9.17
182,mar del plata,0,AR,1554236099,31,-46.43,-67.52,72.37,14.92
183,djibo,80,BF,1554236099,22,14.1,-1.63,93.7,10.22
184,portland,90,US,1554235877,58,45.52,-122.67,62.01,1.28
185,marsa matruh,40,EG,1554231600,72,31.35,27.25,59.0,3.36
186,teguldet,32,RU,1554236100,65,57.31,88.17,29.98,11.01
187,egvekinot,44,RU,1554235986,90,66.32,-179.17,19.54,3.29
188,isangel,36,VU,1554236100,100,-19.55,169.27,80.65,15.14
189,jakarta,20,ID,1554236097,88,-6.18,106.83,79.0,3.36
190,victoria,75,BN,1554233400,88,5.28,115.24,78.8,3.18
191,sinnamary,92,GF,1554236103,91,5.38,-52.96,81.1,12.01
192,yerbogachen,48,RU,1554235924,78,61.28,108.01,23.95,6.42
193,hamilton,90,CA,1554235808,45,43.26,-79.87,48.0,18.34
194,saldanha,0,PT,1554236105,47,41.42,-6.55,52.75,8.99
195,pismo beach,75,US,1554235955,36,35.14,-120.64,66.99,11.41
196,linqiong,0,CN,1554231600,93,30.42,103.46,57.2,1.72
197,kodiak,1,US,1554236082,20,39.95,-94.76,54.0,9.17
198,erzin,40,TR,1554236096,76,36.95,36.2,57.2,10.29
199,oktyabrskoye,0,RU,1554235820,72,56.73,85.44,33.01,8.95
200,boyolangu,48,ID,1554236107,94,-8.09,111.9,69.94,3.18
201,oranjestad,20,AW,1554231600,58,12.52,-70.03,86.0,23.04
202,namibe,0,AO,1554236107,98,-15.19,12.15,80.47,10.11
203,half moon bay,90,US,1554236104,72,37.46,-122.43,63.0,9.17
204,avarua,0,CK,1554233400,74,-21.21,-159.78,80.6,16.11
205,bathsheba,40,BB,1554231600,62,13.22,-59.52,84.2,24.16
206,hobyo,64,SO,1554236108,89,5.35,48.53,79.93,8.66
207,surakarta,44,ID,1554236109,98,-7.57,110.83,68.95,2.17
208,nuuk,64,GL,1554234600,100,64.17,-51.74,33.8,25.28
209,shenzhen,40,CN,1554236043,83,22.54,114.05,73.99,10.29
210,phuket,20,TH,1554233400,83,7.89,98.4,77.0,1.95
211,sovetskiy,0,RU,1554236109,69,56.76,48.47,20.26,6.87
212,bayangol,0,MN,1554236110,63,48.91,106.09,23.95,3.85
213,klaksvik,80,FO,1554232800,100,62.23,-6.59,35.6,32.21
214,eureka,90,US,1554236017,87,40.8,-124.16,62.01,6.93
215,san quintin,80,PH,1554236111,89,17.54,120.52,70.12,2.95
216,yellowknife,40,CA,1554235663,60,62.45,-114.38,10.99,10.29
217,batemans bay,20,AU,1554235603,91,-35.71,150.18,57.0,3.0
218,alice springs,0,AU,1554233400,34,-23.7,133.88,50.0,6.93
219,lander,90,US,1554236111,60,42.83,-108.73,46.0,4.7
220,isabela,8,PH,1554236112,91,10.2,122.99,70.75,3.74
221,toucheng,75,TW,1554236100,88,24.86,121.82,68.0,8.05
222,pisco,20,PE,1554231600,30,-13.71,-76.2,71.6,10.29
223,praia da vitoria,75,PT,1554235250,76,38.73,-27.07,57.2,20.29
224,beringovskiy,88,RU,1554236113,99,63.05,179.32,27.55,16.26
225,meulaboh,56,ID,1554235852,100,4.14,96.13,79.66,4.41
226,mao,40,DO,1554235857,61,19.55,-71.08,88.0,10.29
227,pierre,1,US,1554236006,37,44.37,-100.35,53.6,17.22
228,iqaluit,90,CA,1554235927,70,63.75,-68.52,1.0,25.28
229,lusambo,20,CD,1554236114,77,-4.97,23.44,79.21,2.39
230,kamenka,24,RU,1554236115,87,53.19,44.05,30.97,15.93
231,manzhouli,24,CN,1554236115,38,49.6,117.43,27.82,14.03
232,kalispell,1,US,1554235946,27,48.2,-114.32,55.99,4.7
233,grindavik,0,IS,1554235616,58,63.84,-22.43,32.0,6.93
234,kashary,92,RU,1554236115,82,49.04,41.01,39.16,14.03
235,lopukhiv,0,UA,1554236115,77,48.37,23.97,26.65,2.62
236,mehamn,75,NO,1554232800,83,71.03,27.85,32.0,5.82
237,imeni poliny osipenko,76,RU,1554235927,71,52.42,136.49,14.59,1.83
238,santa rosa,0,AR,1554236118,39,-36.62,-64.29,78.04,10.56
239,laguna,75,MX,1554230640,17,27.52,-110.01,82.4,11.41
240,fortuna,20,ES,1554236116,93,38.18,-1.13,64.99,6.93
241,enkoping,0,SE,1554236115,44,59.64,17.08,39.2,12.75
242,katangli,20,RU,1554236119,87,51.71,143.23,17.47,9.22
243,muros,75,ES,1554236115,87,42.77,-9.06,57.0,6.93
244,doha,40,QA,1554233400,64,25.29,51.53,69.8,10.29
245,inverness,75,GB,1554235915,86,57.48,-4.23,41.0,11.41
246,kalmunai,0,LK,1554236120,100,7.42,81.82,73.09,4.74
247,broome,20,GB,1554236116,93,52.47,1.45,42.01,5.82
248,ilhabela,0,BR,1554236072,96,-23.78,-45.36,76.87,11.45
249,saint-augustin,92,FR,1554236120,93,44.83,-0.61,53.01,8.05
250,sangar,80,RU,1554236121,77,63.92,127.47,25.48,6.87
251,husavik,32,CA,1554235825,90,50.56,-96.99,30.99,10.0
252,paamiut,8,GL,1554236122,91,61.99,-49.67,33.58,47.69
253,sambava,68,MG,1554236122,100,-14.27,50.17,83.17,12.46
254,alyangula,88,AU,1554231600,88,-13.85,136.42,78.8,4.7
255,jamshedpur,0,IN,1554236122,70,22.8,86.2,63.73,2.95
256,indianola,90,US,1554235322,40,40.24,-100.42,55.4,5.3
257,gimli,32,CA,1554235825,90,50.63,-96.99,30.99,10.0
258,kasongo-lunda,64,CD,1554236123,86,-6.48,16.82,74.89,0.38
259,alta floresta,40,BR,1554231600,52,-9.87,-56.08,93.2,3.36
260,kailua,75,US,1554236112,69,21.39,-157.74,78.8,11.41
261,north las vegas,40,US,1554236109,14,36.2,-115.11,79.0,12.75
262,ulladulla,20,AU,1554236114,100,-35.36,150.48,55.4,5.82
263,tilichiki,12,RU,1554236124,85,60.47,166.1,32.23,12.68
264,mindelo,0,PT,1554236002,76,41.31,-8.72,55.99,16.11
265,coahuayana,0,MX,1554236125,21,18.62,-100.35,88.21,2.95
266,ostersund,0,SE,1554235915,59,63.18,14.64,35.6,13.87
267,xining,8,CN,1554236125,74,36.62,101.77,17.74,1.16
268,tessalit,0,ML,1554236125,23,20.2,1.01,77.68,9.55
269,karratha,0,AU,1554236125,87,-20.74,116.85,68.5,3.29
270,ambilobe,48,MG,1554236126,97,-13.19,49.05,72.28,1.16
271,grand gaube,40,MU,1554236040,83,-20.01,57.66,78.8,9.44
272,kirakira,76,SB,1554236126,100,-10.46,161.92,82.54,8.66
273,tuburan,40,PH,1554231600,65,10.73,123.82,80.6,10.29
274,todos santos,40,MX,1554236107,15,23.45,-110.23,90.0,11.41
275,pangnirtung,90,CA,1554233160,84,66.15,-65.72,-0.41,12.75
276,san patricio,92,PY,1554236127,95,-26.98,-56.83,72.28,4.07
277,leningradskiy,64,RU,1554236127,98,69.38,178.42,16.57,16.37
278,wajima,76,JP,1554236128,84,37.4,136.9,41.5,11.68
279,rio grande,20,BR,1554231600,62,-32.03,-52.1,86.0,5.82
280,tasiilaq,92,GL,1554234600,79,65.61,-37.64,23.0,27.51
281,sitka,44,US,1554235256,54,37.17,-99.65,57.0,8.99
282,kuzino,92,RU,1554236128,73,57.02,59.44,29.8,6.64
283,chernyshevskiy,48,RU,1554236129,77,63.01,112.47,25.3,7.2
284,nanga eboko,64,CM,1554236129,90,4.68,12.37,74.44,8.99
285,kisangani,24,CD,1554236129,86,0.52,25.21,79.3,2.28
286,curup,8,ID,1554236129,95,-3.47,102.53,68.59,0.72
287,ostrovnoy,36,RU,1554236130,85,68.05,39.51,28.09,14.7
288,dunedin,8,NZ,1554235776,68,-45.87,170.5,55.0,1.01
289,ginda,0,IN,1554236130,63,30.69,78.49,45.64,2.51
290,lovington,1,US,1554235864,17,32.94,-103.35,77.0,16.11
291,touros,40,BR,1554231600,74,-5.2,-35.46,86.0,10.29
292,togul,20,RU,1554236131,82,53.47,85.91,26.29,2.73
293,baghdad,20,IQ,1554233400,67,33.3,44.38,60.8,4.7
294,ust-nera,56,RU,1554236131,60,64.57,143.24,2.17,2.06
295,varhaug,20,NO,1554236130,52,58.61,5.65,46.4,19.46
296,cidreira,0,BR,1554236132,74,-30.17,-50.22,79.48,5.3
297,tautira,75,PF,1554235948,70,-17.73,-149.15,87.01,5.82
298,kudahuvadhoo,0,MV,1554236132,100,2.67,72.89,82.9,7.2
299,port maria,40,JM,1554231600,66,18.37,-76.89,86.0,17.22
300,pirgos,20,GR,1554236075,76,35.12,25.72,55.99,5.82
301,katherine,8,AU,1554233400,83,-14.47,132.26,69.8,6.93
302,cap-aux-meules,5,CA,1554231600,48,47.38,-61.86,39.2,19.46
303,bambous virieux,40,MU,1554236040,83,-20.34,57.76,78.8,7.31
304,shache,0,CN,1554236133,76,38.42,77.24,40.42,1.61
305,agadir,0,MA,1554233400,23,30.42,-9.58,73.4,4.7
306,nanortalik,68,GL,1554236134,97,60.14,-45.24,32.77,15.14
307,souillac,90,FR,1554235884,93,45.6,-0.6,48.2,4.7
308,nantucket,1,US,1554235847,52,41.28,-70.1,46.0,18.34
309,hervey bay,92,AU,1554235844,93,-25.3,152.85,69.01,9.17
310,tazovskiy,80,RU,1554236135,83,67.47,78.7,22.24,13.58
311,gorontalo,0,ID,1554235960,96,0.54,123.06,71.74,1.72
312,beloha,0,MG,1554236135,92,-25.17,45.06,68.14,5.41
313,esperance,40,TT,1554235251,55,10.24,-61.45,87.8,14.99
314,cockburn town,0,TC,1554236125,100,21.46,-71.14,78.4,9.44
315,sile,1,US,1554236134,32,35.56,-106.37,69.01,12.75
316,gallipoli,75,IT,1554236056,93,40.06,18.0,59.0,5.82
317,kiunga,48,PG,1554236136,97,-6.12,141.3,72.73,2.28
318,buchanan,40,LR,1554231600,66,5.88,-10.05,87.8,4.7
319,ndioum,0,SN,1554236137,35,16.51,-14.65,86.32,8.99
320,te anau,0,NZ,1554236137,86,-45.41,167.72,37.81,2.39
321,coquimbo,20,CL,1554231600,64,-29.95,-71.34,68.0,12.75
322,nizwa,36,OM,1554236137,26,22.93,57.53,65.62,4.41
323,nizhniy baskunchak,92,RU,1554236138,97,48.22,46.83,41.68,19.51
324,aasiaat,92,GL,1554236138,89,68.71,-52.87,34.21,23.76
325,port lincoln,44,AU,1554236138,97,-34.72,135.86,61.57,7.43
326,narsaq,92,GL,1554234600,80,60.91,-46.05,39.2,24.16
327,ukiah,90,US,1554236118,76,39.15,-123.21,57.99,3.36
328,rapid valley,75,US,1554236039,38,44.06,-103.15,53.01,9.17
329,ponta delgada,40,PT,1554236124,67,37.73,-25.67,57.2,18.34
330,fare,0,PF,1554236023,97,-16.7,-151.02,84.97,9.66
331,vao,0,EE,1554236140,78,59.1,26.19,25.12,3.06
332,ngunguru,0,NZ,1554235684,92,-35.62,174.5,53.01,4.0
333,shenjiamen,100,CN,1554236140,98,29.96,122.3,52.48,4.85
334,yukuhashi,75,JP,1554236027,65,33.72,130.98,48.2,8.05
335,waycross,75,US,1554235844,58,31.21,-82.35,62.01,6.93
336,saint george,0,GR,1554234600,75,39.45,22.34,44.6,4.7
337,voznesenye,0,RU,1554236141,76,61.02,35.48,26.92,10.67
338,muisne,75,EC,1554231600,83,0.61,-80.02,82.4,6.93
339,emerald,0,AU,1554236037,82,-23.53,148.16,64.4,8.05
340,great falls,1,US,1554236108,45,47.5,-111.29,48.0,5.82
341,santa isabel do rio negro,24,BR,1554236142,84,-0.41,-65.02,83.62,3.62
342,tooele,90,US,1554236142,54,40.53,-112.3,55.0,14.99
343,san fernando,0,CL,1554231600,36,-34.58,-70.99,80.6,5.82
344,comodoro rivadavia,0,AR,1554231600,22,-45.87,-67.48,77.0,20.8
345,lensk,44,RU,1554236143,75,60.71,114.91,26.83,6.31
346,ilulissat,75,GL,1554234600,69,69.22,-51.1,37.4,18.34
347,taoudenni,36,ML,1554236144,21,22.68,-3.98,78.49,9.44
348,nemuro,32,JP,1554236047,100,43.32,145.57,29.8,12.57
349,axim,12,GH,1554236144,94,4.87,-2.24,84.43,8.66
350,birao,0,CF,1554236145,26,10.3,22.78,76.69,8.88
351,snasa,0,NO,1554232800,64,64.25,12.38,37.4,9.17
352,camacari,40,BR,1554235200,79,-12.7,-38.32,84.2,10.29
353,madison,90,US,1554235924,80,43.07,-89.38,45.0,8.05
354,boyuibe,90,BO,1554231600,94,-20.43,-63.28,69.8,7.43
355,saint-joseph,0,FR,1554236145,71,43.56,6.97,57.2,2.24
356,ust-barguzin,64,RU,1554236147,64,53.41,109.03,15.13,3.51
357,byron bay,75,AU,1554236124,93,-28.65,153.62,69.8,6.93
358,maposeni,24,TZ,1554236147,91,-10.58,35.4,66.25,2.28
359,mayumba,88,GA,1554236148,94,-3.44,10.65,82.72,4.29
360,polyarnyye zori,56,RU,1554236148,70,67.37,32.5,33.22,8.32
361,waingapu,20,ID,1554236148,100,-9.65,120.26,71.38,2.39
362,phan thiet,36,VN,1554236148,96,10.93,108.1,79.66,10.11
363,the valley,20,AI,1554235257,65,18.22,-63.06,84.2,17.22
364,richards bay,92,ZA,1554236149,100,-28.77,32.06,65.35,3.06
365,muriwai beach,80,NZ,1554236142,76,-36.82,174.45,60.01,9.17
366,mount gambier,92,AU,1554231600,66,-37.83,140.78,53.6,6.93
367,yumen,0,CN,1554236150,64,40.29,97.04,31.78,4.18
368,hambantota,0,LK,1554236145,100,6.12,81.12,81.28,5.41
369,palmer,0,AU,1554236136,66,-34.85,139.16,66.0,2.24
370,anloga,20,GH,1554231600,84,5.79,0.9,86.0,9.17
371,adrar,0,DZ,1554235200,20,27.87,-0.29,77.0,8.05
372,yar-sale,0,RU,1554236151,77,66.83,70.83,17.83,15.03
373,san jose,36,PH,1554236151,95,15.79,120.99,67.78,2.06
374,port augusta,0,AU,1554231600,47,-32.49,137.76,55.4,8.05
375,cabra,80,ES,1554236009,63,37.47,-4.43,62.6,4.7
376,kieta,24,PG,1554236152,100,-6.22,155.63,78.22,2.73
377,jam sahib,0,PK,1554231600,51,26.3,68.63,84.2,4.7
378,sotouboua,32,TG,1554236153,81,8.56,0.98,74.98,5.75
379,kitimat,20,CA,1554236104,37,54.02,-128.69,61.0,14.99
380,belogorsk,12,UA,1554236153,95,45.06,34.59,38.62,8.99
381,aksu,0,KZ,1554233400,100,52.04,76.93,33.8,4.47
382,lata,0,IN,1554236154,63,30.78,78.62,45.64,2.51
383,poum,75,MK,1554231600,54,41.28,20.71,53.6,1.12
384,kununurra,0,AU,1554233400,82,-15.77,128.74,62.6,1.12
385,tagusao,20,PH,1554236155,98,9.19,117.81,77.32,2.73
386,mutoko,64,ZW,1554236155,78,-17.4,32.23,67.42,5.64
387,antalaha,68,MG,1554236155,87,-14.9,50.28,79.57,6.98
388,tacoronte,75,ES,1554236122,100,28.48,-16.41,64.4,12.75
389,stuttgart,0,DE,1554236111,36,48.78,9.18,60.8,9.17
390,sawtell,40,AU,1554235993,88,-30.38,153.1,62.6,8.05
391,kuytun,92,RU,1554236156,76,54.34,101.51,37.27,5.86
392,atar,64,MR,1554236156,85,20.52,-13.05,66.07,2.06
393,high level,75,CA,1554235200,36,58.52,-117.13,30.2,9.17
394,shilka,0,RU,1554236157,39,51.85,116.03,23.32,5.3
395,turka,0,UA,1554235927,38,49.16,23.03,42.01,4.63
396,yakeshi,0,CN,1554236157,56,49.28,120.73,23.32,10.67
397,brae,92,GB,1554234600,86,60.4,-1.35,41.0,25.28
398,vila franca do campo,40,PT,1554236124,67,37.72,-25.43,57.2,18.34
399,necochea,0,AR,1554235690,23,-38.55,-58.74,71.01,11.99
400,pristen,0,RU,1554236129,69,51.24,36.69,37.4,11.18
401,padang,40,ID,1554231600,94,-0.92,100.36,75.2,5.82
402,yaan,0,NG,1554236159,47,7.38,8.57,85.87,8.43
403,bhadasar,0,IN,1554236159,42,28.3,74.31,65.98,2.73
404,uni,0,RU,1554236159,86,57.75,51.49,22.33,6.98
405,moyale,12,ET,1554236159,67,3.52,39.05,68.59,2.62
406,vrangel,0,RU,1554236160,100,42.73,133.08,34.57,15.26
407,mayskiy,90,RU,1554231600,91,43.63,44.06,39.2,11.45
408,alferrarede,0,PT,1554236147,75,39.48,-8.18,57.0,3.0
409,saint-pierre,92,FR,1554236020,93,48.95,4.24,48.2,8.05
410,seoul,1,KR,1554234000,74,37.57,126.98,33.8,1.12
411,caravelas,0,BR,1554236161,100,-17.73,-39.27,81.55,9.78
412,barranca,12,PE,1554236161,93,-10.75,-77.76,69.13,7.31
413,roxana,40,US,1554236160,41,38.85,-90.08,66.99,9.17
414,gigmoto,76,PH,1554236162,100,13.78,124.39,76.87,7.31
415,bay roberts,40,CA,1554236152,47,47.58,-53.28,37.0,32.21
416,rio claro,0,BR,1554231600,40,-22.41,-47.56,86.0,2.24
417,ahmadabad,40,IR,1554231600,18,32.36,53.99,69.8,2.24
418,kattivakkam,20,IN,1554233400,83,13.22,80.32,84.2,6.93
419,mantua,40,IT,1554235790,59,45.16,10.79,64.4,10.29
420,luderitz,0,NA,1554236163,87,-26.65,15.16,57.88,8.77
421,corn island,24,NI,1554236164,98,12.17,-83.04,80.47,15.7
422,baie-comeau,75,CA,1554235941,64,49.22,-68.15,41.0,23.04
423,iquique,75,CL,1554231600,56,-20.22,-70.14,71.6,9.17
424,phetchaburi,56,TH,1554236164,100,13.1,99.94,84.25,11.23
425,negara,56,ID,1554236164,97,-8.36,114.62,79.03,3.18
426,erenhot,0,CN,1554236164,66,43.65,111.97,21.52,3.51
427,henties bay,0,NA,1554235342,89,-22.12,14.28,60.01,3.0
428,mbekenyera,0,TZ,1554236165,81,-10.0,38.98,73.72,3.29
429,honghu,80,CN,1554236165,88,29.82,113.46,52.57,11.56
430,mnogovershinnyy,20,RU,1554236166,66,53.94,139.92,10.0,2.28
431,charters towers,8,AU,1554236166,83,-20.07,146.27,66.7,8.55
432,kalemie,36,CD,1554236166,100,-5.95,29.2,77.77,4.41
433,port hardy,75,CA,1554231600,53,50.7,-127.42,51.8,4.7
434,taksimo,0,RU,1554236166,71,56.36,114.84,3.79,1.95
435,okoneshnikovo,36,RU,1554236167,79,54.84,75.08,22.33,2.95
436,volovo,0,RU,1554236167,82,53.55,38.01,27.37,11.01
437,smoky lake,0,CA,1554235982,63,54.11,-112.47,39.0,8.99
438,serro,24,BR,1554236167,63,-18.6,-43.38,75.88,1.16
439,mangan,0,IN,1554236168,57,27.5,88.54,19.18,2.39
440,zhigansk,44,RU,1554236168,81,66.77,123.37,24.76,7.65
441,ola,80,RU,1554236168,83,59.58,151.3,32.23,14.81
442,praia,75,BR,1554235925,54,-20.25,-43.81,82.4,8.05
443,okha,24,RU,1554236168,84,53.59,142.95,9.19,6.64
444,lasa,40,CY,1554235279,87,34.92,32.53,57.2,5.82
445,abaza,68,RU,1554236169,86,52.65,90.1,43.03,7.99
446,kamloops,20,CA,1554235919,28,50.68,-120.34,55.4,2.24
447,verkh-usugli,0,RU,1554236169,40,52.7,115.17,17.2,4.52
448,zeya,32,RU,1554236170,69,53.74,127.27,12.25,1.72
449,knyaze-volkonskoye,0,RU,1554233400,73,48.46,135.46,21.2,4.47
450,pulaski,1,US,1554236146,25,35.2,-87.03,64.0,6.93
451,puri,20,ID,1554231600,100,-7.54,112.45,77.0,4.7
452,taft,0,PH,1554236171,97,11.9,125.42,75.88,9.22
453,wad rawah,0,SD,1554236171,34,15.16,33.13,63.1,3.96
454,pecos,1,US,1554235329,14,31.42,-103.49,78.8,5.82
455,honningsvag,75,NO,1554234600,74,70.98,25.97,30.2,3.36
456,diego de almagro,32,CL,1554236171,69,-26.39,-70.05,69.22,2.95
457,singleton,0,AU,1554235805,93,-32.57,151.17,60.01,1.12
458,hope,1,CA,1554235666,27,49.38,-121.43,71.01,6.93
459,concordia,75,AR,1554235012,62,-31.4,-58.02,90.0,6.93
460,deputatskiy,32,RU,1554235927,55,69.3,139.9,-6.48,2.73
461,braintree,24,GB,1554236164,86,51.88,0.55,42.8,1.12
462,klyuchi,24,RU,1554236173,78,52.25,79.17,36.82,8.43
463,karaton,20,ID,1554236173,88,-6.34,106.1,79.0,3.36
464,alizai,0,PK,1554236174,61,33.94,71.55,56.62,4.07
465,rosario,20,UY,1554236170,62,-34.31,-57.35,86.0,11.41
466,abu samrah,20,SY,1554236174,91,35.3,37.18,47.8,6.98
467,moulins,80,FR,1554235924,71,46.57,3.33,51.8,10.29
468,port keats,0,AU,1554236175,77,-14.25,129.55,74.35,12.01
469,kyrylivka,48,UA,1554236175,79,47.65,37.3,39.7,12.68
470,darab,76,IR,1554236175,93,28.75,54.55,47.35,2.17
471,baruun-urt,0,MN,1554236175,63,46.68,113.28,21.25,3.62
472,chapais,90,CA,1554233100,82,49.78,-74.86,32.0,16.11
473,butajira,92,ET,1554236176,93,8.12,38.38,54.73,1.95
474,lujan,0,AR,1554236176,18,-46.57,-67.67,72.37,16.37
475,sunland park,1,US,1554235997,11,31.8,-106.58,79.0,14.99
476,dicabisagan,92,PH,1554236176,100,17.08,122.42,71.74,4.41
477,qasigiannguit,75,GL,1554234600,69,68.82,-51.19,37.4,18.34
478,matara,75,PE,1554231600,54,-13.74,-72.9,55.4,2.39
479,shakiso,0,ET,1554236177,58,5.77,38.9,59.95,2.84
480,cartagena,20,ES,1554236176,77,37.63,-1.0,64.99,8.05
481,verkhoyansk,44,RU,1554236178,63,67.55,133.39,-0.36,2.62
482,zarichne,0,UA,1554236178,53,51.81,26.13,34.57,10.45
483,kirksville,20,US,1554234900,53,40.19,-92.58,51.8,11.41
484,camalu,0,MX,1554236179,38,30.85,-116.07,69.85,7.31
485,dawlatabad,64,AF,1554236179,91,36.41,64.91,60.04,6.64
486,pemberton,0,AU,1554236101,86,-34.44,116.03,60.01,1.99
487,novoagansk,0,RU,1554236179,83,61.94,76.66,26.47,8.1
488,maniitsoq,92,GL,1554236180,94,65.42,-52.9,32.41,6.98
489,cutro,40,IT,1554231000,87,39.04,16.98,57.2,4.7
490,geraldton,90,CA,1554233280,74,49.72,-86.95,35.6,14.99
491,aracati,36,BR,1554236180,81,-4.56,-37.77,80.29,8.66
492,tondon,20,GN,1554236180,71,10.37,-13.36,79.12,3.4
493,turukhansk,88,RU,1554236181,92,65.8,87.96,28.45,2.62
494,la macarena,20,CO,1554236181,98,2.18,-73.79,75.97,2.17
495,sioux lookout,90,CA,1554234900,46,50.1,-91.92,33.8,17.22
496,chara,0,GR,1554234600,75,39.42,22.43,44.6,4.7
497,terney,80,RU,1554236182,85,45.05,136.61,30.88,6.53
498,gornopravdinsk,0,RU,1554236182,90,60.06,69.92,28.27,5.64
499,cervo,40,BR,1554231600,58,-22.19,-46.24,82.4,5.82
500,romanovo,0,RU,1554236183,66,56.49,40.39,18.28,3.06
501,roald,0,NO,1554236124,60,62.58,6.12,41.0,5.82
502,jumla,0,NP,1554236183,80,29.28,82.18,23.59,1.83
503,manggar,24,ID,1554236183,100,-2.88,108.27,73.45,2.84
504,cadiz,1,US,1554236182,27,40.27,-81.0,57.0,3.36
505,evensk,0,RU,1554236184,82,61.92,159.24,32.59,12.8
506,haikou,75,CN,1554231600,94,20.04,110.34,75.2,4.47
507,shirokovskiy,0,RU,1554235952,73,58.84,57.78,16.0,2.73
508,sergeyevka,88,KZ,1554236185,91,53.88,67.42,36.91,12.8
509,angoram,80,PG,1554236185,97,-4.06,144.07,75.07,2.39
510,sirnak,92,TR,1554236185,100,37.52,42.46,34.57,2.28
511,taman,0,RU,1554233400,87,45.22,36.72,42.8,6.71
512,neiafu,40,TO,1554231600,78,-18.65,-173.98,75.2,1.12
513,xichang,80,CN,1554236186,59,27.88,102.25,44.47,1.61
514,rabo de peixe,40,PT,1554236184,67,37.8,-25.58,57.2,18.34
515,jalu,0,LY,1554236186,37,29.03,21.55,67.24,9.55
516,jieshi,76,CN,1554236187,100,22.82,115.83,66.97,11.45
517,baoma,92,CN,1554236187,80,31.49,106.11,52.12,7.65
518,aswan,0,EG,1554231600,15,24.09,32.9,71.6,3.36
519,vestmannaeyjar,0,IS,1554236187,100,63.44,-20.27,31.51,9.44
520,pishva,20,IR,1554235949,66,35.31,51.73,53.6,6.93
521,celestun,0,MX,1554236188,96,20.87,-90.4,77.95,18.5
522,yurimaguas,40,PE,1554231600,310,-5.9,-76.1,48.2,3.18
523,oistins,40,BB,1554231600,62,13.07,-59.53,84.2,24.16
524,butembo,8,CD,1554236189,90,0.12,29.29,61.57,1.61
525,sal rei,75,CV,1554235200,60,16.18,-22.92,71.6,13.87
526,reus,20,ES,1554236175,93,41.16,1.11,59.0,2.24
527,sault sainte marie,75,CA,1554234960,64,46.49,-84.36,41.0,12.75
528,beyneu,92,KZ,1554236190,97,45.32,55.19,44.92,21.18
529,kavaratti,0,IN,1554236190,100,10.57,72.64,84.34,10.0
530,skovorodino,68,RU,1554236190,69,53.99,123.94,21.34,4.18
531,voyvozh,20,RU,1554236190,78,62.89,54.96,23.59,9.1
532,kingsport,75,US,1554236138,34,36.55,-82.56,54.0,8.05
533,usinsk,76,RU,1554236191,86,66.0,57.56,25.57,10.89
534,bonneville,75,FR,1554236179,33,46.08,6.41,59.0,16.11
535,melendugno,0,IT,1554236056,62,40.27,18.34,59.0,9.17
536,borodino,0,RU,1554236192,78,55.9,94.89,33.04,18.61
537,vinukonda,0,IN,1554236192,89,16.05,79.74,76.33,5.97
538,ilo,0,PE,1554231600,69,-17.65,-71.34,73.4,8.05
539,hargeysa,36,SO,1554235970,72,9.56,44.06,65.35,2.73
540,khani,90,GE,1554233400,93,41.96,42.96,42.8,4.7
541,pacific grove,90,US,1554235960,67,36.62,-121.92,64.0,14.99
542,bushehr,0,IR,1554231600,64,28.97,50.84,69.8,4.7
543,tual,44,ID,1554236193,100,-5.67,132.75,81.55,17.49
544,bulawayo,48,ZW,1554236193,79,-20.16,28.59,64.63,11.45
